{"Ann Arbor": {"results": [{"address_components": [{"long_name": "Ann Arbor", "short_name": "Ann Arbor", "types": ["locality", "political"]}, {"long_name": "Washtenaw County", "short_name": "Washtenaw County", "types": ["administrative_area_level_2", "political"]}, {"long_name": "Michigan", "short_name": "MI", "types": ["administrative_area_level_1", "political"]}, {"long_name": "United States", "short_name": "US", "types": ["country", "political"]}], "formatted_address": "Ann Arbor, MI, USA", "geometry": {"bounds": {"northeast": {"lat": 42.3239728, "lng": -83.6758069}, "southwest": {"lat": 42.222668, "lng": -83.799572}}, "location": {"lat": 42.2808256, "lng": -83.7430378}, "location_type": "APPROXIMATE", "viewport": {"northeast": {"lat": 42.3239728, "lng": -83.6758069}, "southwest": {"lat": 42.222668, "lng": -83.799572}}}, "place_id": "ChIJMx9D1A2wPIgR4rXIhkb5Cds", "types": ["locality", "political"]}], "status": "OK"}, "New York": {"results": [{"address_components": [{"long_name": "New York", "short_name": "New York", "types": ["locality", "political"]}, {"long_name": "New York", "short_name": "NY", "types": ["administrative_area_level_1", "political"]}, {"long_name": "United States", "short_name": "US", "types": ["country", "political"]}], "formatted_address": "New York, NY, USA", "geometry": {"bounds": {"northeast": {"lat": 40.9175771, "lng": -73.70027209999999}, "southwest": {"lat": 40.4773991, "lng": -74.25908989999999}}, "location": {"lat": 40.7127753, "lng": -74.0059728}, "location_type": "APPROXIMATE", "viewport": {"northeast": {"lat": 40.9175771, "lng": -73.70027209999999}, "southwest": {"lat": 40.4773991, "lng": -74.25908989999999}}}, "place_id": "ChIJOwg_06VPwokRYv534QaPC8g", "types": ["locality", "political"]}], "status": "OK"}, "Tokyo": {"results": [{"address_components": [{"long_name": "Tokyo", "short_name": "Tokyo", "types": ["administrative_area_level_1", "locality", "political"]}, {"long_name": "Japan", "short_name": "JP", "types": ["country", "political"]}], "formatted_address": "Tokyo, Japan", "geometry": {"bounds": {"northeast": {"lat": 35.8986468, "lng": 153.9876916}, "southwest": {"lat": 24.2241404, "lng": 138.942758}}, "location": {"lat": 35.6894875, "lng": 139.6917064}, "location_type": "APPROXIMATE", "viewport": {"northeast": {"lat": 35.817813, "lng": 139.910202}, "southwest": {"lat": 35.528873, "lng": 139.510574}}}, "place_id": "ChIJ51cu8IcbXWARiRtXIothAS4", "types": ["administrative_area_level_1", "locality", "political"]}], "status": "OK"}}